{"type":"FeatureCollection","features":[{"type":"Feature","properties":{"cc":"ARM","name":"Armenia","GDPppp":13312.11,"TotalRefugees":45415,"HostPopulation":2963234,"refupercap":1.532616019,"rclass":4,"gclass":2},"geometry":{"type":"Point","coordinates":[44.56299973,40.5340004]}},{"type":"Feature","properties":{"cc":"CMR","name":"Cameroon","GDPppp":3867.52,"TotalRefugees":446101,"HostPopulation":26545864,"refupercap":1.680491567,"rclass":4,"gclass":1},"geometry":{"type":"Point","coordinates":[12.27700043,5.132999897]}},{"type":"Feature","properties":{"cc":"TCD","name":"Chad","GDPppp":1602.36,"TotalRefugees":508304,"HostPopulation":16425859,"refupercap":3.094535351,"rclass":4,"gclass":1},"geometry":{"type":"Point","coordinates":[18.66500092,15.36100006]}},{"type":"Feature","properties":{"cc":"DJI","name":"Djibouti","GDPppp":5781.76,"TotalRefugees":22123,"HostPopulation":988002,"refupercap":2.239165545,"rclass":4,"gclass":2},"geometry":{"type":"Point","coordinates":[42.51599884,11.89999962]}},{"type":"Feature","properties":{"cc":"AUT","name":"Austria","GDPppp":55683.84,"TotalRefugees":146025,"HostPopulation":8917205,"refupercap":1.637564659,"rclass":4,"gclass":4},"geometry":{"type":"Point","coordinates":[14.9119997,47.68299866]}},{"type":"Feature","properties":{"cc":"DEU","name":"Germany","GDPppp":54792.06,"TotalRefugees":1235160,"HostPopulation":83240525,"refupercap":1.483844519,"rclass":4,"gclass":4},"geometry":{"type":"Point","coordinates":[9.850999832,51.11000061]}},{"type":"Feature","properties":{"cc":"JOR","name":"Jordan","GDPppp":10355.01,"TotalRefugees":708308,"HostPopulation":10203140,"refupercap":6.94205904,"rclass":4,"gclass":2},"geometry":{"type":"Point","coordinates":[36.31900024,30.70299911]}},{"type":"Feature","properties":{"cc":"LBN","name":"Lebanon","GDPppp":12118.57,"TotalRefugees":856758,"HostPopulation":6825442,"refupercap":12.55241776,"rclass":4,"gclass":2},"geometry":{"type":"Point","coordinates":[35.88800049,33.91999817]}},{"type":"Feature","properties":{"cc":"MRT","name":"Mauritania","GDPppp":5390.09,"TotalRefugees":99057,"HostPopulation":4649660,"refupercap":2.130413771,"rclass":4,"gclass":2},"geometry":{"type":"Point","coordinates":[-10.33199978,20.26000023]}},{"type":"Feature","properties":{"cc":"MLT","name":"Malta","GDPppp":41740.77,"TotalRefugees":9260,"HostPopulation":525285,"refupercap":1.76285255,"rclass":4,"gclass":4},"geometry":{"type":"Point","coordinates":[14.44200039,35.88999939]}},{"type":"Feature","properties":{"cc":"NRU","name":"Nauru","GDPppp":14340.17,"TotalRefugees":964,"HostPopulation":10834,"refupercap":8.897913933,"rclass":4,"gclass":3},"geometry":{"type":"Point","coordinates":[166.9299927,-0.522000015]}},{"type":"Feature","properties":{"cc":"SDN","name":"Sudan","GDPppp":4142.45,"TotalRefugees":1068339,"HostPopulation":43849269,"refupercap":2.436389446,"rclass":4,"gclass":1},"geometry":{"type":"Point","coordinates":[30.04999924,13.83199978]}},{"type":"Feature","properties":{"cc":"SWE","name":"Sweden","GDPppp":55037.72,"TotalRefugees":244942,"HostPopulation":10353442,"refupercap":2.365802526,"rclass":4,"gclass":4},"geometry":{"type":"Point","coordinates":[15.27000046,62.01100159]}},{"type":"Feature","properties":{"cc":"TUR","name":"Turkey","GDPppp":27235.43,"TotalRefugees":3696831,"HostPopulation":84339067,"refupercap":4.383296013,"rclass":4,"gclass":3},"geometry":{"type":"Point","coordinates":[35.17900085,39.06100082]}},{"type":"Feature","properties":{"cc":"UGA","name":"Uganda","GDPppp":2294.34,"TotalRefugees":1475311,"HostPopulation":45741000,"refupercap":3.225358009,"rclass":4,"gclass":1},"geometry":{"type":"Point","coordinates":[32.38600159,1.279999971]}},{"type":"Feature","properties":{"cc":"DZA","name":"Algeria","GDPppp":11324.24,"TotalRefugees":97810,"HostPopulation":43851043,"refupercap":0.223050565,"rclass":3,"gclass":2},"geometry":{"type":"Point","coordinates":[2.631999969,28.16300011]}},{"type":"Feature","properties":{"cc":"AUS","name":"Australia","GDPppp":53329.81,"TotalRefugees":56229,"HostPopulation":25687041,"refupercap":0.218900263,"rclass":3,"gclass":4},"geometry":{"type":"Point","coordinates":[136.1889954,-24.97299957]}},{"type":"Feature","properties":{"cc":"BGD","name":"Bangladesh","GDPppp":5138.65,"TotalRefugees":889775,"HostPopulation":164689383,"refupercap":0.54027468,"rclass":3,"gclass":2},"geometry":{"type":"Point","coordinates":[89.94100189,24.21800041]}},{"type":"Feature","properties":{"cc":"BGR","name":"Bulgaria","GDPppp":24613.84,"TotalRefugees":21770,"HostPopulation":6934015,"refupercap":0.313959509,"rclass":3,"gclass":3},"geometry":{"type":"Point","coordinates":[25.2310009,42.76100159]}},{"type":"Feature","properties":{"cc":"CAN","name":"Canada","GDPppp":46611.31,"TotalRefugees":125427,"HostPopulation":38005238,"refupercap":0.330025554,"rclass":3,"gclass":4},"geometry":{"type":"Point","coordinates":[-109.4329987,59.08100128]}},{"type":"Feature","properties":{"cc":"COG","name":"Congo","GDPppp":3622.32,"TotalRefugees":38421,"HostPopulation":5518092,"refupercap":0.696273267,"rclass":3,"gclass":1},"geometry":{"type":"Point","coordinates":[15.98600006,-0.055]}},{"type":"Feature","properties":{"cc":"COD","name":"Democratic Republic of the Congo","GDPppp":1141.82,"TotalRefugees":519819,"HostPopulation":89561404,"refupercap":0.580405176,"rclass":3,"gclass":1},"geometry":{"type":"Point","coordinates":[23.65399933,-2.875999928]}},{"type":"Feature","properties":{"cc":"BDI","name":"Burundi","GDPppp":771.16,"TotalRefugees":76837,"HostPopulation":11890781,"refupercap":0.64618969,"rclass":3,"gclass":1},"geometry":{"type":"Point","coordinates":[29.88699913,-3.355999947]}},{"type":"Feature","properties":{"cc":"AFG","name":"Afghanistan","GDPppp":2078.65,"TotalRefugees":72226,"HostPopulation":38928341,"refupercap":0.185535774,"rclass":3,"gclass":1},"geometry":{"type":"Point","coordinates":[65.21600342,33.67699814]}},{"type":"Feature","properties":{"cc":"CRI","name":"Costa Rica","GDPppp":22132.47,"TotalRefugees":9976,"HostPopulation":5094114,"refupercap":0.195833862,"rclass":3,"gclass":3},"geometry":{"type":"Point","coordinates":[-83.94599915,9.970999718]}},{"type":"Feature","properties":{"cc":"CAF","name":"Central African Republic","GDPppp":987.64,"TotalRefugees":9174,"HostPopulation":4829764,"refupercap":0.189947173,"rclass":3,"gclass":1},"geometry":{"type":"Point","coordinates":[20.4829998,6.571000099]}},{"type":"Feature","properties":{"cc":"CYP","name":"Cyprus","GDPppp":39452.87,"TotalRefugees":15141,"HostPopulation":1207361,"refupercap":1.254057407,"rclass":3,"gclass":3},"geometry":{"type":"Point","coordinates":[33.21900177,35.04299927]}},{"type":"Feature","properties":{"cc":"DNK","name":"Denmark","GDPppp":60229.91,"TotalRefugees":36431,"HostPopulation":5831404,"refupercap":0.624738038,"rclass":3,"gclass":4},"geometry":{"type":"Point","coordinates":[9.263999939,56.05799866]}},{"type":"Feature","properties":{"cc":"ECU","name":"Ecuador","GDPppp":10895.77,"TotalRefugees":55424,"HostPopulation":17643060,"refupercap":0.314140528,"rclass":3,"gclass":2},"geometry":{"type":"Point","coordinates":[-78.49700165,-1.38499999]}},{"type":"Feature","properties":{"cc":"EGY","name":"Egypt","GDPppp":12607,"TotalRefugees":277665,"HostPopulation":102334403,"refupercap":0.271331042,"rclass":3,"gclass":2},"geometry":{"type":"Point","coordinates":[29.87199974,26.49399948]}},{"type":"Feature","properties":{"cc":"IRL","name":"Ireland","GDPppp":93180.95,"TotalRefugees":9421,"HostPopulation":4994724,"refupercap":0.188619033,"rclass":3,"gclass":4},"geometry":{"type":"Point","coordinates":[-8.152000427,53.17699814]}},{"type":"Feature","properties":{"cc":"ETH","name":"Ethiopia","GDPppp":2422.81,"TotalRefugees":782896,"HostPopulation":114963583,"refupercap":0.680994809,"rclass":3,"gclass":1},"geometry":{"type":"Point","coordinates":[39.61600113,8.626000404]}},{"type":"Feature","properties":{"cc":"FIN","name":"Finland","GDPppp":50506.29,"TotalRefugees":23746,"HostPopulation":5530719,"refupercap":0.429347426,"rclass":3,"gclass":4},"geometry":{"type":"Point","coordinates":[26.27199936,64.5039978]}},{"type":"Feature","properties":{"cc":"FRA","name":"France","GDPppp":46983.04,"TotalRefugees":457153,"HostPopulation":67391582,"refupercap":0.67835325,"rclass":3,"gclass":4},"geometry":{"type":"Point","coordinates":[2.549999952,46.56499863]}},{"type":"Feature","properties":{"cc":"GMB","name":"Gambia","GDPppp":2275.06,"TotalRefugees":4419,"HostPopulation":2416664,"refupercap":0.182855368,"rclass":3,"gclass":1},"geometry":{"type":"Point","coordinates":[-15.38599968,13.45300007]}},{"type":"Feature","properties":{"cc":"GRC","name":"Greece","GDPppp":27909.54,"TotalRefugees":112022,"HostPopulation":10715549,"refupercap":1.045415401,"rclass":3,"gclass":3},"geometry":{"type":"Point","coordinates":[21.76600075,39.66600037]}},{"type":"Feature","properties":{"cc":"ISL","name":"Iceland","GDPppp":53622.25,"TotalRefugees":1535,"HostPopulation":366425,"refupercap":0.41891247,"rclass":3,"gclass":4},"geometry":{"type":"Point","coordinates":[-18.47999954,64.76399994]}},{"type":"Feature","properties":{"cc":"IRN","name":"Iran (Islamic Republic of)","GDPppp":13338.01,"TotalRefugees":800025,"HostPopulation":83992953,"refupercap":0.952490628,"rclass":3,"gclass":2},"geometry":{"type":"Point","coordinates":[54.30099869,32.56499863]}},{"type":"Feature","properties":{"cc":"ITA","name":"Italy","GDPppp":41828.55,"TotalRefugees":134499,"HostPopulation":59554023,"refupercap":0.225843683,"rclass":3,"gclass":4},"geometry":{"type":"Point","coordinates":[12.80000019,42.70000076]}},{"type":"Feature","properties":{"cc":"IRQ","name":"Iraq","GDPppp":9506.73,"TotalRefugees":272215,"HostPopulation":40222503,"refupercap":0.676772892,"rclass":3,"gclass":2},"geometry":{"type":"Point","coordinates":[43.77199936,33.04800034]}},{"type":"Feature","properties":{"cc":"KEN","name":"Kenya","GDPppp":4577.91,"TotalRefugees":466286,"HostPopulation":53771300,"refupercap":0.867165208,"rclass":3,"gclass":2},"geometry":{"type":"Point","coordinates":[37.85800171,0.529999971]}},{"type":"Feature","properties":{"cc":"LBR","name":"Liberia","GDPppp":1468.36,"TotalRefugees":8441,"HostPopulation":5057677,"refupercap":0.166894808,"rclass":3,"gclass":1},"geometry":{"type":"Point","coordinates":[-9.656999588,6.68200016]}},{"type":"Feature","properties":{"cc":"LIE","name":"Liechtenstein","GDPppp":"","TotalRefugees":131,"HostPopulation":38137,"refupercap":0.343498439,"rclass":3,"gclass":""},"geometry":{"type":"Point","coordinates":[9.555000305,47.15299988]}},{"type":"Feature","properties":{"cc":"MLI","name":"Mali","GDPppp":2347.99,"TotalRefugees":46885,"HostPopulation":20250834,"refupercap":0.231521323,"rclass":3,"gclass":1},"geometry":{"type":"Point","coordinates":[-3.523999929,17.35000038]}},{"type":"Feature","properties":{"cc":"MYS","name":"Malaysia","GDPppp":27923.69,"TotalRefugees":131101,"HostPopulation":32365998,"refupercap":0.405057788,"rclass":3,"gclass":3},"geometry":{"type":"Point","coordinates":[102.1949997,4.201000214]}},{"type":"Feature","properties":{"cc":"NER","name":"Niger","GDPppp":1288.26,"TotalRefugees":245449,"HostPopulation":24206636,"refupercap":1.013974071,"rclass":3,"gclass":1},"geometry":{"type":"Point","coordinates":[9.397999763,17.4260006]}},{"type":"Feature","properties":{"cc":"BEL","name":"Belgium","GDPppp":53034.96,"TotalRefugees":65906,"HostPopulation":11555997,"refupercap":0.57031858,"rclass":3,"gclass":4},"geometry":{"type":"Point","coordinates":[4.664000034,50.64300156]}},{"type":"Feature","properties":{"cc":"LUX","name":"Luxembourg","GDPppp":117500.21,"TotalRefugees":5158,"HostPopulation":632275,"refupercap":0.815784276,"rclass":3,"gclass":4},"geometry":{"type":"Point","coordinates":[6.087999821,49.77099991]}},{"type":"Feature","properties":{"cc":"NLD","name":"Netherlands","GDPppp":59268.14,"TotalRefugees":97621,"HostPopulation":17441139,"refupercap":0.55971688,"rclass":3,"gclass":4},"geometry":{"type":"Point","coordinates":[5.388999939,52.07699966]}},{"type":"Feature","properties":{"cc":"NOR","name":"Norway","GDPppp":62644.85,"TotalRefugees":47710,"HostPopulation":5379475,"refupercap":0.886889517,"rclass":3,"gclass":4},"geometry":{"type":"Point","coordinates":[8.739999771,61.15200043]}},{"type":"Feature","properties":{"cc":"PAK","name":"Pakistan","GDPppp":4812.89,"TotalRefugees":1438523,"HostPopulation":220892331,"refupercap":0.65123266,"rclass":3,"gclass":2},"geometry":{"type":"Point","coordinates":[69.38600159,29.96699905]}},{"type":"Feature","properties":{"cc":"RWA","name":"Rwanda","GDPppp":2213.83,"TotalRefugees":122806,"HostPopulation":12952209,"refupercap":0.948147118,"rclass":3,"gclass":1},"geometry":{"type":"Point","coordinates":[29.91699982,-1.998000026]}},{"type":"Feature","properties":{"cc":"ESP","name":"Spain","GDPppp":37765.8,"TotalRefugees":115258,"HostPopulation":47351567,"refupercap":0.243409052,"rclass":3,"gclass":3},"geometry":{"type":"Point","coordinates":[-3.648999929,40.22700119]}},{"type":"Feature","properties":{"cc":"CHE","name":"Switzerland","GDPppp":71742.52,"TotalRefugees":117169,"HostPopulation":8636896,"refupercap":1.35661006,"rclass":3,"gclass":4},"geometry":{"type":"Point","coordinates":[7.907999992,46.86100006]}},{"type":"Feature","properties":{"cc":"TTO","name":"Trinidad and Tobago","GDPppp":25023.7,"TotalRefugees":3458,"HostPopulation":1399491,"refupercap":0.247089833,"rclass":3,"gclass":3},"geometry":{"type":"Point","coordinates":[-61.25299835,10.46800041]}},{"type":"Feature","properties":{"cc":"TZA","name":"United Republic of Tanzania","GDPppp":2779.91,"TotalRefugees":202635,"HostPopulation":59734213,"refupercap":0.339227706,"rclass":3,"gclass":1},"geometry":{"type":"Point","coordinates":[34.82300186,-6.269999981]}},{"type":"Feature","properties":{"cc":"GBR","name":"United Kingdom","GDPppp":46482.86,"TotalRefugees":135912,"HostPopulation":67215293,"refupercap":0.202203989,"rclass":3,"gclass":4},"geometry":{"type":"Point","coordinates":[-1.600000024,53]}},{"type":"Feature","properties":{"cc":"VEN","name":"Venezuela","GDPppp":"","TotalRefugees":68139,"HostPopulation":28435943,"refupercap":0.239622787,"rclass":3,"gclass":""},"geometry":{"type":"Point","coordinates":[-66.16600037,7.125]}},{"type":"Feature","properties":{"cc":"YEM","name":"Yemen","GDPppp":"","TotalRefugees":129001,"HostPopulation":29825968,"refupercap":0.432512373,"rclass":3,"gclass":""},"geometry":{"type":"Point","coordinates":[48.35499954,15.80700016]}},{"type":"Feature","properties":{"cc":"ZMB","name":"Zambia","GDPppp":3457.61,"TotalRefugees":70837,"HostPopulation":18383956,"refupercap":0.38531968,"rclass":3,"gclass":1},"geometry":{"type":"Point","coordinates":[26.31999969,-14.61400032]}},{"type":"Feature","properties":{"cc":"SRB","name":"Serbia","GDPppp":19107.2,"TotalRefugees":25641,"HostPopulation":6908224,"refupercap":0.371166319,"rclass":3,"gclass":3},"geometry":{"type":"Point","coordinates":[20.80599976,44.0320015]}},{"type":"Feature","properties":{"cc":"AGO","name":"Angola","GDPppp":6445.43,"TotalRefugees":25931,"HostPopulation":32866268,"refupercap":0.078898519,"rclass":2,"gclass":2},"geometry":{"type":"Point","coordinates":[17.54400063,-12.29599953]}},{"type":"Feature","properties":{"cc":"BRA","name":"Brazil","GDPppp":14835.41,"TotalRefugees":60848,"HostPopulation":212559409,"refupercap":0.028626351,"rclass":2,"gclass":3},"geometry":{"type":"Point","coordinates":[-53.0890007,-10.77200031]}},{"type":"Feature","properties":{"cc":"CHN","name":"China","GDPppp":17210.76,"TotalRefugees":303430,"HostPopulation":1410929362,"refupercap":0.021505684,"rclass":2,"gclass":3},"geometry":{"type":"Point","coordinates":[106.5139999,33.41999817]}},{"type":"Feature","properties":{"cc":"CYM","name":"Cayman Islands","GDPppp":71594.04,"TotalRefugees":43,"HostPopulation":65720,"refupercap":0.065429091,"rclass":2,"gclass":4},"geometry":{"type":"Point","coordinates":[-81.19799805,19.31399918]}},{"type":"Feature","properties":{"cc":"EST","name":"Estonia","GDPppp":37600.59,"TotalRefugees":288,"HostPopulation":1331057,"refupercap":0.021636941,"rclass":2,"gclass":3},"geometry":{"type":"Point","coordinates":[25.79299927,58.67399979]}},{"type":"Feature","properties":{"cc":"CZE","name":"Czech Republic","GDPppp":41603.99,"TotalRefugees":2052,"HostPopulation":10698896,"refupercap":0.019179549,"rclass":2,"gclass":4},"geometry":{"type":"Point","coordinates":[15.3380003,49.74300003]}},{"type":"Feature","properties":{"cc":"GEO","name":"Georgia","GDPppp":14766.98,"TotalRefugees":1795,"HostPopulation":3714000,"refupercap":0.048330642,"rclass":2,"gclass":3},"geometry":{"type":"Point","coordinates":[43.51800156,42.17599869]}},{"type":"Feature","properties":{"cc":"GHA","name":"Ghana","GDPppp":5744.43,"TotalRefugees":12388,"HostPopulation":31072945,"refupercap":0.039867479,"rclass":2,"gclass":2},"geometry":{"type":"Point","coordinates":[-1.207000017,7.960000038]}},{"type":"Feature","properties":{"cc":"GIN","name":"Guinea","GDPppp":2817.32,"TotalRefugees":6239,"HostPopulation":13132792,"refupercap":0.047507033,"rclass":2,"gclass":1},"geometry":{"type":"Point","coordinates":[-10.94200039,10.43900013]}},{"type":"Feature","properties":{"cc":"HRV","name":"Croatia","GDPppp":28841.71,"TotalRefugees":965,"HostPopulation":4047200,"refupercap":0.023843644,"rclass":2,"gclass":3},"geometry":{"type":"Point","coordinates":[16.69300079,45.72299957]}},{"type":"Feature","properties":{"cc":"HUN","name":"Hungary","GDPppp":33077.23,"TotalRefugees":5736,"HostPopulation":9749763,"refupercap":0.058832198,"rclass":2,"gclass":3},"geometry":{"type":"Point","coordinates":[19.13400078,47.06999969]}},{"type":"Feature","properties":{"cc":"ISR","name":"Israel","GDPppp":39481.57,"TotalRefugees":1860,"HostPopulation":9216900,"refupercap":0.02018032,"rclass":2,"gclass":3},"geometry":{"type":"Point","coordinates":[34.85100174,31.02599907]}},{"type":"Feature","properties":{"cc":"KWT","name":"Kuwait","GDPppp":47306.99,"TotalRefugees":740,"HostPopulation":4270563,"refupercap":0.017327925,"rclass":2,"gclass":4},"geometry":{"type":"Point","coordinates":[47.37599945,29.47599983]}},{"type":"Feature","properties":{"cc":"LVA","name":"Latvia","GDPppp":31464.48,"TotalRefugees":678,"HostPopulation":1901548,"refupercap":0.03565516,"rclass":2,"gclass":3},"geometry":{"type":"Point","coordinates":[25.64100075,56.85800171]}},{"type":"Feature","properties":{"cc":"BLR","name":"Belarus","GDPppp":20239.2,"TotalRefugees":2924,"HostPopulation":9379952,"refupercap":0.031172868,"rclass":2,"gclass":3},"geometry":{"type":"Point","coordinates":[28.04700089,53.54000092]}},{"type":"Feature","properties":{"cc":"LTU","name":"Lithuania","GDPppp":38883.12,"TotalRefugees":1880,"HostPopulation":2794700,"refupercap":0.06727019,"rclass":2,"gclass":3},"geometry":{"type":"Point","coordinates":[23.89699936,55.33599854]}},{"type":"Feature","properties":{"cc":"SVK","name":"Slovakia","GDPppp":31356.46,"TotalRefugees":1012,"HostPopulation":5458827,"refupercap":0.018538781,"rclass":2,"gclass":3},"geometry":{"type":"Point","coordinates":[19.49099922,48.70700073]}},{"type":"Feature","properties":{"cc":"LBY","name":"Libyan Arab Jamahiriya","GDPppp":10846.29,"TotalRefugees":3701,"HostPopulation":6871287,"refupercap":0.053861815,"rclass":2,"gclass":2},"geometry":{"type":"Point","coordinates":[18.02300072,27.04400063]}},{"type":"Feature","properties":{"cc":"MAR","name":"Morocco","GDPppp":7369.49,"TotalRefugees":6920,"HostPopulation":36910558,"refupercap":0.018748023,"rclass":2,"gclass":2},"geometry":{"type":"Point","coordinates":[-5.757999897,32.70600128]}},{"type":"Feature","properties":{"cc":"MEX","name":"Mexico","GDPppp":18444.07,"TotalRefugees":58050,"HostPopulation":128932753,"refupercap":0.045023471,"rclass":2,"gclass":3},"geometry":{"type":"Point","coordinates":[-102.5350037,23.95100021]}},{"type":"Feature","properties":{"cc":"MWI","name":"Malawi","GDPppp":1591.61,"TotalRefugees":16359,"HostPopulation":19129955,"refupercap":0.085515097,"rclass":2,"gclass":1},"geometry":{"type":"Point","coordinates":[33.80799866,-13.39999962]}},{"type":"Feature","properties":{"cc":"MCO","name":"Monaco","GDPppp":"","TotalRefugees":22,"HostPopulation":39244,"refupercap":0.056059524,"rclass":2,"gclass":""},"geometry":{"type":"Point","coordinates":[7.412000179,43.75]}},{"type":"Feature","properties":{"cc":"MNE","name":"Montenegro","GDPppp":20029.91,"TotalRefugees":172,"HostPopulation":621306,"refupercap":0.027683621,"rclass":2,"gclass":3},"geometry":{"type":"Point","coordinates":[19.25399971,42.79199982]}},{"type":"Feature","properties":{"cc":"NGA","name":"Nigeria","GDPppp":5186.41,"TotalRefugees":71362,"HostPopulation":206139587,"refupercap":0.034618288,"rclass":2,"gclass":2},"geometry":{"type":"Point","coordinates":[8.104999542,9.593999863]}},{"type":"Feature","properties":{"cc":"NPL","name":"Nepal","GDPppp":4008.51,"TotalRefugees":19552,"HostPopulation":29136808,"refupercap":0.067104124,"rclass":2,"gclass":1},"geometry":{"type":"Point","coordinates":[83.93900299,28.25300026]}},{"type":"Feature","properties":{"cc":"NZL","name":"New Zealand","GDPppp":44491.32,"TotalRefugees":1785,"HostPopulation":5084300,"refupercap":0.035108078,"rclass":2,"gclass":4},"geometry":{"type":"Point","coordinates":[172.2350006,-42.63399887]}},{"type":"Feature","properties":{"cc":"PRY","name":"Paraguay","GDPppp":13069.18,"TotalRefugees":3041,"HostPopulation":7132530,"refupercap":0.042635642,"rclass":2,"gclass":2},"geometry":{"type":"Point","coordinates":[-58.39099884,-23.23600006]}},{"type":"Feature","properties":{"cc":"PAN","name":"Panama","GDPppp":26782.48,"TotalRefugees":2542,"HostPopulation":4314768,"refupercap":0.058913942,"rclass":2,"gclass":3},"geometry":{"type":"Point","coordinates":[-80.91999817,8.383999825]}},{"type":"Feature","properties":{"cc":"PRT","name":"Portugal","GDPppp":34148.95,"TotalRefugees":2650,"HostPopulation":10305564,"refupercap":0.025714265,"rclass":2,"gclass":3},"geometry":{"type":"Point","coordinates":[-8.057999611,40.30899811]}},{"type":"Feature","properties":{"cc":"PNG","name":"Papua New Guinea","GDPppp":4286.63,"TotalRefugees":11862,"HostPopulation":8947027,"refupercap":0.132580355,"rclass":2,"gclass":1},"geometry":{"type":"Point","coordinates":[143.4589996,-5.948999882]}},{"type":"Feature","properties":{"cc":"GNB","name":"Guinea-Bissau","GDPppp":1948.8,"TotalRefugees":1846,"HostPopulation":1967998,"refupercap":0.09380091,"rclass":2,"gclass":1},"geometry":{"type":"Point","coordinates":[-14.65100002,12.125]}},{"type":"Feature","properties":{"cc":"ROU","name":"Romania","GDPppp":32116.48,"TotalRefugees":3776,"HostPopulation":19286123,"refupercap":0.019578844,"rclass":2,"gclass":3},"geometry":{"type":"Point","coordinates":[24.96899986,45.84400177]}},{"type":"Feature","properties":{"cc":"ZAF","name":"South Africa","GDPppp":13360.57,"TotalRefugees":76729,"HostPopulation":59308690,"refupercap":0.129372269,"rclass":2,"gclass":2},"geometry":{"type":"Point","coordinates":[23.12100029,-30.55800056]}},{"type":"Feature","properties":{"cc":"BWA","name":"Botswana","GDPppp":15458.48,"TotalRefugees":644,"HostPopulation":2351625,"refupercap":0.027385319,"rclass":2,"gclass":3},"geometry":{"type":"Point","coordinates":[23.81500053,-22.18199921]}},{"type":"Feature","properties":{"cc":"SEN","name":"Senegal","GDPppp":3502.82,"TotalRefugees":14505,"HostPopulation":16743930,"refupercap":0.086628407,"rclass":2,"gclass":1},"geometry":{"type":"Point","coordinates":[-14.88099957,15.01299953]}},{"type":"Feature","properties":{"cc":"SVN","name":"Slovenia","GDPppp":39768.63,"TotalRefugees":833,"HostPopulation":2100126,"refupercap":0.039664287,"rclass":2,"gclass":3},"geometry":{"type":"Point","coordinates":[14.82699966,46.12400055]}},{"type":"Feature","properties":{"cc":"SOM","name":"Somalia","GDPppp":1245.74,"TotalRefugees":11959,"HostPopulation":15893219,"refupercap":0.075245924,"rclass":2,"gclass":1},"geometry":{"type":"Point","coordinates":[48.31600189,9.774000168]}},{"type":"Feature","properties":{"cc":"SYR","name":"Syrian Arab Republic","GDPppp":"","TotalRefugees":15362,"HostPopulation":17500657,"refupercap":0.087779559,"rclass":2,"gclass":""},"geometry":{"type":"Point","coordinates":[38.50600052,35.01300049]}},{"type":"Feature","properties":{"cc":"THA","name":"Thailand","GDPppp":18232.8,"TotalRefugees":96175,"HostPopulation":69799978,"refupercap":0.137786582,"rclass":2,"gclass":3},"geometry":{"type":"Point","coordinates":[100.8440018,15.69999981]}},{"type":"Feature","properties":{"cc":"TJK","name":"Tajikistan","GDPppp":3858.2,"TotalRefugees":6780,"HostPopulation":9537642,"refupercap":0.071086749,"rclass":2,"gclass":1},"geometry":{"type":"Point","coordinates":[69.41999817,38.66500092]}},{"type":"Feature","properties":{"cc":"TGO","name":"Togo","GDPppp":2223.5,"TotalRefugees":10831,"HostPopulation":8278737,"refupercap":0.130829141,"rclass":2,"gclass":1},"geometry":{"type":"Point","coordinates":[1.08099997,8.798999786]}},{"type":"Feature","properties":{"cc":"TUN","name":"Tunisia","GDPppp":10822.85,"TotalRefugees":2678,"HostPopulation":11818618,"refupercap":0.022659164,"rclass":2,"gclass":2},"geometry":{"type":"Point","coordinates":[9.595999718,35.38299942]}},{"type":"Feature","properties":{"cc":"USA","name":"United States","GDPppp":63593.44,"TotalRefugees":337870,"HostPopulation":329484123,"refupercap":0.102545157,"rclass":2,"gclass":4},"geometry":{"type":"Point","coordinates":[-98.60600281,39.62200165]}},{"type":"Feature","properties":{"cc":"BFA","name":"Burkina Faso","GDPppp":2274.02,"TotalRefugees":22291,"HostPopulation":20903278,"refupercap":0.106638774,"rclass":2,"gclass":1},"geometry":{"type":"Point","coordinates":[-1.74000001,12.27799988]}},{"type":"Feature","properties":{"cc":"URY","name":"Uruguay","GDPppp":22793.69,"TotalRefugees":747,"HostPopulation":3473727,"refupercap":0.021504281,"rclass":2,"gclass":3},"geometry":{"type":"Point","coordinates":[-56.01200104,-32.79999924]}},{"type":"Feature","properties":{"cc":"NAM","name":"Namibia","GDPppp":9298.09,"TotalRefugees":3537,"HostPopulation":2540916,"refupercap":0.139201775,"rclass":2,"gclass":2},"geometry":{"type":"Point","coordinates":[17.21800041,-22.13299942]}},{"type":"Feature","properties":{"cc":"SWZ","name":"Swaziland","GDPppp":8865.74,"TotalRefugees":987,"HostPopulation":1160164,"refupercap":0.085074179,"rclass":2,"gclass":2},"geometry":{"type":"Point","coordinates":[31.49699974,-26.56200027]}},{"type":"Feature","properties":{"cc":"ZWE","name":"Zimbabwe","GDPppp":3537.35,"TotalRefugees":9467,"HostPopulation":14862927,"refupercap":0.063695394,"rclass":2,"gclass":1},"geometry":{"type":"Point","coordinates":[29.87199974,-19]}},{"type":"Feature","properties":{"cc":"TCA","name":"Turks and Caicos Islands","GDPppp":22285.8,"TotalRefugees":8,"HostPopulation":38718,"refupercap":0.020662224,"rclass":2,"gclass":3},"geometry":{"type":"Point","coordinates":[-71.94999695,21.90200043]}},{"type":"Feature","properties":{"cc":"AZE","name":"Azerbaijan","GDPppp":14479.71,"TotalRefugees":1603,"HostPopulation":10093121,"refupercap":0.015882105,"rclass":1,"gclass":3},"geometry":{"type":"Point","coordinates":[47.39500046,40.43000031]}},{"type":"Feature","properties":{"cc":"ALB","name":"Albania","GDPppp":13439.67,"TotalRefugees":107,"HostPopulation":2837743,"refupercap":0.003770602,"rclass":1,"gclass":2},"geometry":{"type":"Point","coordinates":[20.06800079,41.14300156]}},{"type":"Feature","properties":{"cc":"ARG","name":"Argentina","GDPppp":20770.73,"TotalRefugees":4007,"HostPopulation":45376763,"refupercap":0.008830511,"rclass":1,"gclass":3},"geometry":{"type":"Point","coordinates":[-65.16699982,-35.3769989]}},{"type":"Feature","properties":{"cc":"BHR","name":"Bahrain","GDPppp":43755.86,"TotalRefugees":251,"HostPopulation":1701583,"refupercap":0.014750971,"rclass":1,"gclass":4},"geometry":{"type":"Point","coordinates":[50.56200027,26.0189991]}},{"type":"Feature","properties":{"cc":"BHS","name":"Bahamas","GDPppp":32538.57,"TotalRefugees":20,"HostPopulation":393248,"refupercap":0.005085849,"rclass":1,"gclass":3},"geometry":{"type":"Point","coordinates":[-78.01399994,24.62800026]}},{"type":"Feature","properties":{"cc":"BLZ","name":"Belize","GDPppp":6457.64,"TotalRefugees":65,"HostPopulation":397621,"refupercap":0.016347226,"rclass":1,"gclass":2},"geometry":{"type":"Point","coordinates":[-88.60199738,17.21899986]}},{"type":"Feature","properties":{"cc":"BIH","name":"Bosnia and Herzegovina","GDPppp":15623.1,"TotalRefugees":416,"HostPopulation":3280815,"refupercap":0.012679776,"rclass":1,"gclass":3},"geometry":{"type":"Point","coordinates":[17.7859993,44.16899872]}},{"type":"Feature","properties":{"cc":"BOL","name":"Bolivia","GDPppp":8275.49,"TotalRefugees":1116,"HostPopulation":11673029,"refupercap":0.0095605,"rclass":1,"gclass":2},"geometry":{"type":"Point","coordinates":[-64.67099762,-16.71500015]}},{"type":"Feature","properties":{"cc":"BEN","name":"Benin","GDPppp":3505.42,"TotalRefugees":1427,"HostPopulation":12123198,"refupercap":0.011770821,"rclass":1,"gclass":1},"geometry":{"type":"Point","coordinates":[2.469000101,10.54100037]}},{"type":"Feature","properties":{"cc":"KHM","name":"Cambodia","GDPppp":4421.48,"TotalRefugees":32,"HostPopulation":16718971,"refupercap":0.000191399,"rclass":1,"gclass":2},"geometry":{"type":"Point","coordinates":[104.564003,12.71399975]}},{"type":"Feature","properties":{"cc":"LKA","name":"Sri Lanka","GDPppp":13224.61,"TotalRefugees":952,"HostPopulation":21919000,"refupercap":0.004343264,"rclass":1,"gclass":2},"geometry":{"type":"Point","coordinates":[80.70400238,7.611999989]}},{"type":"Feature","properties":{"cc":"CHL","name":"Chile","GDPppp":25110.16,"TotalRefugees":2060,"HostPopulation":19116209,"refupercap":0.010776196,"rclass":1,"gclass":3},"geometry":{"type":"Point","coordinates":[-69.43299866,-23.38899994]}},{"type":"Feature","properties":{"cc":"COL","name":"Colombia","GDPppp":14931.05,"TotalRefugees":964,"HostPopulation":50882884,"refupercap":0.001894547,"rclass":1,"gclass":3},"geometry":{"type":"Point","coordinates":[-73.0759964,3.900000095]}},{"type":"Feature","properties":{"cc":"CUB","name":"Cuba","GDPppp":"","TotalRefugees":207,"HostPopulation":11326616,"refupercap":0.001827554,"rclass":1,"gclass":""},"geometry":{"type":"Point","coordinates":[-77.78099823,21.29700089]}},{"type":"Feature","properties":{"cc":"DOM","name":"Dominican Republic","GDPppp":17935.66,"TotalRefugees":162,"HostPopulation":10847904,"refupercap":0.001493376,"rclass":1,"gclass":3},"geometry":{"type":"Point","coordinates":[-70.72899628,19.01499939]}},{"type":"Feature","properties":{"cc":"SLV","name":"El Salvador","GDPppp":8420.49,"TotalRefugees":32,"HostPopulation":6486201,"refupercap":0.000493355,"rclass":1,"gclass":2},"geometry":{"type":"Point","coordinates":[-88.86599731,13.73600006]}},{"type":"Feature","properties":{"cc":"FJI","name":"Fiji","GDPppp":12078.84,"TotalRefugees":13,"HostPopulation":896444,"refupercap":0.001450174,"rclass":1,"gclass":2},"geometry":{"type":"Point","coordinates":[177.973999,-17.81900024]}},{"type":"Feature","properties":{"cc":"GAB","name":"Gabon","GDPppp":15106.37,"TotalRefugees":333,"HostPopulation":2225728,"refupercap":0.014961397,"rclass":1,"gclass":3},"geometry":{"type":"Point","coordinates":[11.79699993,-0.591000021]}},{"type":"Feature","properties":{"cc":"GTM","name":"Guatemala","GDPppp":8853.67,"TotalRefugees":471,"HostPopulation":16858333,"refupercap":0.002793871,"rclass":1,"gclass":2},"geometry":{"type":"Point","coordinates":[-90.39800262,15.25599957]}},{"type":"Feature","properties":{"cc":"GUY","name":"Guyana","GDPppp":19704.58,"TotalRefugees":23,"HostPopulation":786559,"refupercap":0.002924129,"rclass":1,"gclass":3},"geometry":{"type":"Point","coordinates":[-58.97399902,4.791999817]}},{"type":"Feature","properties":{"cc":"HND","name":"Honduras","GDPppp":5420.23,"TotalRefugees":124,"HostPopulation":9904608,"refupercap":0.001251942,"rclass":1,"gclass":2},"geometry":{"type":"Point","coordinates":[-86.86299896,14.81900024]}},{"type":"Feature","properties":{"cc":"IND","name":"India","GDPppp":6503.95,"TotalRefugees":196194,"HostPopulation":1380004385,"refupercap":0.014216911,"rclass":1,"gclass":2},"geometry":{"type":"Point","coordinates":[78.5,21]}},{"type":"Feature","properties":{"cc":"CIV","name":"Cote d'Ivoire","GDPppp":5465.51,"TotalRefugees":2119,"HostPopulation":26378275,"refupercap":0.008033126,"rclass":1,"gclass":2},"geometry":{"type":"Point","coordinates":[-5.556000233,7.631999969]}},{"type":"Feature","properties":{"cc":"JPN","name":"Japan","GDPppp":42390.38,"TotalRefugees":1132,"HostPopulation":125836021,"refupercap":0.000899583,"rclass":1,"gclass":4},"geometry":{"type":"Point","coordinates":[139.0679932,36.49100113]}},{"type":"Feature","properties":{"cc":"JAM","name":"Jamaica","GDPppp":9241.58,"TotalRefugees":27,"HostPopulation":2961161,"refupercap":0.000911804,"rclass":1,"gclass":2},"geometry":{"type":"Point","coordinates":[-77.31999969,18.15099907]}},{"type":"Feature","properties":{"cc":"KGZ","name":"Kyrgyzstan","GDPppp":4964.73,"TotalRefugees":327,"HostPopulation":6591600,"refupercap":0.004960859,"rclass":1,"gclass":2},"geometry":{"type":"Point","coordinates":[74.55500031,41.46500015]}},{"type":"Feature","properties":{"cc":"KOR","name":"Korea, Republic of","GDPppp":45274.46,"TotalRefugees":3503,"HostPopulation":51780579,"refupercap":0.006765085,"rclass":1,"gclass":4},"geometry":{"type":"Point","coordinates":[128.1029968,36.50400162]}},{"type":"Feature","properties":{"cc":"KAZ","name":"Kazakhstan","GDPppp":26754.38,"TotalRefugees":399,"HostPopulation":18754440,"refupercap":0.002127496,"rclass":1,"gclass":3},"geometry":{"type":"Point","coordinates":[67.3010025,48.15999985]}},{"type":"Feature","properties":{"cc":"MDG","name":"Madagascar","GDPppp":1544.16,"TotalRefugees":156,"HostPopulation":27691019,"refupercap":0.00056336,"rclass":1,"gclass":1},"geometry":{"type":"Point","coordinates":[46.70600128,-19.37400055]}},{"type":"Feature","properties":{"cc":"MKD","name":"The former Yugoslav Republic of Macedonia","GDPppp":16959.67,"TotalRefugees":296,"HostPopulation":2072531,"refupercap":0.014282054,"rclass":1,"gclass":3},"geometry":{"type":"Point","coordinates":[21.69799995,41.59999847]}},{"type":"Feature","properties":{"cc":"MUS","name":"Mauritius","GDPppp":20530.51,"TotalRefugees":20,"HostPopulation":1265740,"refupercap":0.001580103,"rclass":1,"gclass":3},"geometry":{"type":"Point","coordinates":[57.58300018,-20.25499916]}},{"type":"Feature","properties":{"cc":"OMN","name":"Oman","GDPppp":31120.3,"TotalRefugees":307,"HostPopulation":5106622,"refupercap":0.006011802,"rclass":1,"gclass":3},"geometry":{"type":"Point","coordinates":[57.4070015,21.65600014]}},{"type":"Feature","properties":{"cc":"MOZ","name":"Mozambique","GDPppp":1297.4,"TotalRefugees":4768,"HostPopulation":31255435,"refupercap":0.015254946,"rclass":1,"gclass":1},"geometry":{"type":"Point","coordinates":[37.92300034,-14.42199993]}},{"type":"Feature","properties":{"cc":"HKG","name":"Hong Kong","GDPppp":59234.11,"TotalRefugees":265,"HostPopulation":7481800,"refupercap":0.003541928,"rclass":1,"gclass":4},"geometry":{"type":"Point","coordinates":[114.1289978,22.42300034]}},{"type":"Feature","properties":{"cc":"SUR","name":"Suriname","GDPppp":16734.75,"TotalRefugees":19,"HostPopulation":586634,"refupercap":0.003238817,"rclass":1,"gclass":3},"geometry":{"type":"Point","coordinates":[-55.91199875,4.126999855]}},{"type":"Feature","properties":{"cc":"NIC","name":"Nicaragua","GDPppp":5569.72,"TotalRefugees":311,"HostPopulation":6624554,"refupercap":0.004694656,"rclass":1,"gclass":2},"geometry":{"type":"Point","coordinates":[-85.03399658,12.84000015]}},{"type":"Feature","properties":{"cc":"PER","name":"Peru","GDPppp":11878.52,"TotalRefugees":4895,"HostPopulation":32971846,"refupercap":0.014845999,"rclass":1,"gclass":2},"geometry":{"type":"Point","coordinates":[-75.55200195,-9.326000214]}},{"type":"Feature","properties":{"cc":"POL","name":"Poland","GDPppp":34240.25,"TotalRefugees":3166,"HostPopulation":37950802,"refupercap":0.00834238,"rclass":1,"gclass":3},"geometry":{"type":"Point","coordinates":[19.40099907,52.125]}},{"type":"Feature","properties":{"cc":"QAT","name":"Qatar","GDPppp":89968.77,"TotalRefugees":200,"HostPopulation":2881060,"refupercap":0.006941889,"rclass":1,"gclass":4},"geometry":{"type":"Point","coordinates":[51.19100189,25.31599998]}},{"type":"Feature","properties":{"cc":"MDA","name":"Republic of Moldova","GDPppp":13000.4,"TotalRefugees":405,"HostPopulation":2620495,"refupercap":0.015455095,"rclass":1,"gclass":2},"geometry":{"type":"Point","coordinates":[28.59900093,47.19300079]}},{"type":"Feature","properties":{"cc":"PHL","name":"Philippines","GDPppp":8389.85,"TotalRefugees":794,"HostPopulation":109581085,"refupercap":0.000724578,"rclass":1,"gclass":2},"geometry":{"type":"Point","coordinates":[122.4660034,11.11800003]}},{"type":"Feature","properties":{"cc":"RUS","name":"Russia","GDPppp":29812.21,"TotalRefugees":15052,"HostPopulation":144104080,"refupercap":0.010445228,"rclass":1,"gclass":3},"geometry":{"type":"Point","coordinates":[96.68900299,61.98799896]}},{"type":"Feature","properties":{"cc":"SAU","name":"Saudi Arabia","GDPppp":46759.66,"TotalRefugees":335,"HostPopulation":34813867,"refupercap":0.00096226,"rclass":1,"gclass":4},"geometry":{"type":"Point","coordinates":[44.58499908,24.02300072]}},{"type":"Feature","properties":{"cc":"LSO","name":"Lesotho","GDPppp":2444.08,"TotalRefugees":295,"HostPopulation":2142252,"refupercap":0.013770555,"rclass":1,"gclass":1},"geometry":{"type":"Point","coordinates":[28.24300003,-29.58099937]}},{"type":"Feature","properties":{"cc":"SLE","name":"Sierra Leone","GDPppp":1727.11,"TotalRefugees":342,"HostPopulation":7976985,"refupercap":0.004287334,"rclass":1,"gclass":1},"geometry":{"type":"Point","coordinates":[-11.79199982,8.56000042]}},{"type":"Feature","properties":{"cc":"TKM","name":"Turkmenistan","GDPppp":"","TotalRefugees":20,"HostPopulation":6031187,"refupercap":0.00033161,"rclass":1,"gclass":""},"geometry":{"type":"Point","coordinates":[59.38399887,39.12200165]}},{"type":"Feature","properties":{"cc":"UKR","name":"Ukraine","GDPppp":13054.76,"TotalRefugees":2310,"HostPopulation":44134693,"refupercap":0.005233978,"rclass":1,"gclass":2},"geometry":{"type":"Point","coordinates":[31.38800049,49.01599884]}},{"type":"Feature","properties":{"cc":"UZB","name":"Uzbekistan","GDPppp":7734.02,"TotalRefugees":13,"HostPopulation":34232050,"refupercap":"3.79761E-05","rclass":1,"gclass":2},"geometry":{"type":"Point","coordinates":[63.16999817,41.75]}},{"type":"Feature","properties":{"cc":"IDN","name":"Indonesia","GDPppp":12072.74,"TotalRefugees":10076,"HostPopulation":273523621,"refupercap":0.003683777,"rclass":1,"gclass":2},"geometry":{"type":"Point","coordinates":[114.2519989,-0.976000011]}},{"type":"Feature","properties":{"cc":"ARE","name":"United Arab Emirates","GDPppp":66771.5,"TotalRefugees":1296,"HostPopulation":9890400,"refupercap":0.013103615,"rclass":1,"gclass":4},"geometry":{"type":"Point","coordinates":[54.1629982,23.54899979]}}]}